[{"line":{"id":1506809545,"k":-3.1479976245991192,"b":213.16840645000116},"points":[{"name":"Март","address":"ул. Петровка","lat":55.76680857637215,"lng":37.614569664001465,"cluster":1506809545},{"name":"Московский музей современного искусства / Moscow Museum of Modern Art","address":"ул. Петровка","lat":55.767043965616885,"lng":37.61422634124756,"cluster":1506809545},{"name":"Union Jack","address":"ул. Петровка","lat":55.76635712328991,"lng":37.61462694176148,"cluster":1506809545},{"name":"Кондитерская Александра Селезнева","address":"Мясницкая ул.","lat":55.761145853160976,"lng":37.632269481644016,"cluster":1506809545},{"name":"Л'Этуаль","address":"Мясницкая ул.","lat":55.76115382689365,"lng":37.63224704745677,"cluster":1506809545},{"name":"Pandora","address":"Мясницкая ул.","lat":55.76116578749064,"lng":37.63227817624621,"cluster":1506809545},{"name":"Burger King","address":"Мясницкая ул.","lat":55.761251231019905,"lng":37.63247968032171,"cluster":1506809545},{"name":"Viet House","address":"Мясницкая ул.","lat":55.761190842034594,"lng":37.63222832278504,"cluster":1506809545},{"name":"Videoigr.net","address":"ул. Покровка","lat":55.758675743757045,"lng":37.639093761144835,"cluster":1506809545},{"name":"#Follow Me Cafe","address":"ул. Покровка","lat":55.75842115270124,"lng":37.639052867889404,"cluster":1506809545},{"name":"Мосдонер","address":"ул. Покровка","lat":55.75838955526715,"lng":37.63919406588215,"cluster":1506809545},{"name":"Лора Крафт","address":"ул. Покровка","lat":55.75849068212415,"lng":37.638719614179905,"cluster":1506809545},{"name":"Дарбарс","address":"ул. Покровка","lat":55.757854,"lng":37.638941,"cluster":1506809545},{"name":"Штолле","address":"ул. Покровка","lat":55.75830203717473,"lng":37.63973968880529,"cluster":1506809545},{"name":"Золотая Вобла","address":"ул. Покровка","lat":55.758273247432506,"lng":37.63984680175781,"cluster":1506809545},{"name":"Cafezinho do Brasil","address":"ул. Покровка","lat":55.75838493105463,"lng":37.639036774635315,"cluster":1506809545},{"name":"Sisters","address":"ул. Покровка","lat":55.7589544257893,"lng":37.64222340360654,"cluster":1506809545},{"name":"Тай Тай","address":"ул. Покровка","lat":55.75877061915608,"lng":37.641312168073675,"cluster":1506809545},{"name":"Галерея \"Дом Нащокина\"","address":"ул. Покровка","lat":55.75869381949841,"lng":37.640695789073646,"cluster":1506809545},{"name":"Белые облака","address":"ул. Покровка","lat":55.75862942651629,"lng":37.641552686691284,"cluster":1506809545},{"name":"Ходасевич","address":"ул. Покровка","lat":55.75889694538601,"lng":37.6422496021267,"cluster":1506809545},{"name":"M.E.A.T.","address":"ул. Покровка","lat":55.75866762765425,"lng":37.64061647937873,"cluster":1506809545},{"name":"Royal Thai Spa","address":"ул. Покровка","lat":55.758918,"lng":37.641852,"cluster":1506809545},{"name":"Pacha","address":"ул. Покровка","lat":55.75866019833845,"lng":37.64082284258697,"cluster":1506809545},{"name":"Шоколадница","address":"ул. Покровка","lat":55.75898560234711,"lng":37.64192819595337,"cluster":1506809545},{"name":"Saperavi","address":"ул. Покровка","lat":55.75876374744471,"lng":37.64096260070801,"cluster":1506809545},{"name":"Сквер на Покровке","address":"ул. Покровка","lat":55.75890712320616,"lng":37.641273736953735,"cluster":1506809545},{"name":"Комус","address":"ул. Покровка","lat":55.75849057742983,"lng":37.64122009277344,"cluster":1506809545},{"name":"Saperavi","address":"1-я Тверская-Ямская ул.","lat":55.77584288232428,"lng":37.58596658706665,"cluster":1506809545},{"name":"re:Store","address":"1-я Тверская-Ямская ул.","lat":55.77517911014208,"lng":37.58777976036072,"cluster":1506809545},{"name":"Chainaya. Tea & Cocktails","address":"1-я Тверская-Ямская ул.","lat":55.776182282243674,"lng":37.58562106793882,"cluster":1506809545},{"name":"Mr. Help & Friends","address":"1-я Тверская-Ямская ул.","lat":55.775914583855965,"lng":37.585882425332784,"cluster":1506809545},{"name":"Hairshop","address":"1-я Тверская-Ямская ул.","lat":55.77568529493381,"lng":37.5863783923581,"cluster":1506809545},{"name":"Аптека","address":"1-я Тверская-Ямская ул.","lat":55.77612139424142,"lng":37.585808704977076,"cluster":1506809545}]},{"line":{"id":1448247698,"k":-0.4008371044126133,"b":59.96993331690449},"points":[{"name":"Mendeleev","address":"ул. Петровка","lat":55.76400734813922,"lng":37.617732083512045,"cluster":1448247698},{"name":"Cartier","address":"ул. Петровка","lat":55.76167607192062,"lng":37.618133235778906,"cluster":1448247698},{"name":"Chanel","address":"ул. Петровка","lat":55.76225814627256,"lng":37.61774984308461,"cluster":1448247698},{"name":"Большой","address":"ул. Петровка","lat":55.76123124623063,"lng":37.61816382408142,"cluster":1448247698},{"name":"ЦУМ","address":"ул. Петровка","lat":55.76057929842508,"lng":37.619569301605225,"cluster":1448247698},{"name":"Бараshка","address":"ул. Петровка","lat":55.763988581607855,"lng":37.61792918394389,"cluster":1448247698},{"name":"Roni Asian Grill & Bar","address":"ул. Петровка","lat":55.76402278881679,"lng":37.61804150779686,"cluster":1448247698},{"name":"Lucky Noodles","address":"ул. Петровка","lat":55.76407433563197,"lng":37.61749863624573,"cluster":1448247698},{"name":"Чайхона TAMERLAN","address":"ул. Петровка","lat":55.76407460110729,"lng":37.61802161320964,"cluster":1448247698},{"name":"Очкарик","address":"Пятницкая ул.","lat":55.74047222476095,"lng":37.6271653175354,"cluster":1448247698}]},{"line":{"id":2005733474,"k":1.3128285449676305,"b":-35.59407107391202},"points":[{"name":"Большой зал Консерватории им. П. И. Чайковского","address":"Большая Никитская ул.","lat":55.75635990432839,"lng":37.603866880438844,"cluster":2005733474},{"name":"Уголёк","address":"Большая Никитская ул.","lat":55.75637301456806,"lng":37.60664957160768,"cluster":2005733474},{"name":"Московская государственная консерватория им. П. И. Чайковского","address":"Большая Никитская ул.","lat":55.75632929748189,"lng":37.60502099990845,"cluster":2005733474},{"name":"Кофемания","address":"Большая Никитская ул.","lat":55.75643193080266,"lng":37.60501563549042,"cluster":2005733474},{"name":"Starbucks","address":"ул. Арбат","lat":55.7507806589635,"lng":37.5961697101593,"cluster":2005733474},{"name":"Крабстер","address":"ул. Арбат","lat":55.751663918861645,"lng":37.59796017762092,"cluster":2005733474},{"name":"Coffeeshop Company","address":"ул. Арбат","lat":55.75182305914758,"lng":37.5989735471369,"cluster":2005733474},{"name":"Pandora","address":"ул. Арбат","lat":55.75171636007813,"lng":37.598238138916685,"cluster":2005733474},{"name":"Tajj Mahal","address":"ул. Арбат","lat":55.751529850173014,"lng":37.59731121975204,"cluster":2005733474},{"name":"Прага","address":"ул. Арбат","lat":55.752360476461405,"lng":37.599666123134284,"cluster":2005733474},{"name":"Dunkin' Donuts","address":"ул. Арбат","lat":55.75154145478693,"lng":37.598084807395935,"cluster":2005733474},{"name":"Магазин-кулинария ресторана «Прага»","address":"ул. Арбат","lat":55.75203577678097,"lng":37.599772351317064,"cluster":2005733474},{"name":"МУ-МУ","address":"ул. Арбат","lat":55.75203052998112,"lng":37.59874999523163,"cluster":2005733474},{"name":"Prime Star","address":"ул. Арбат","lat":55.75211842402561,"lng":37.59986917215192,"cluster":2005733474},{"name":"Crazy Toilet","address":"ул. Арбат","lat":55.751635380749896,"lng":37.59783061629861,"cluster":2005733474},{"name":"МГТС","address":"ул. Новый Арбат","lat":55.75297205046957,"lng":37.59919193075614,"cluster":2005733474},{"name":"МТС","address":"ул. Новый Арбат","lat":55.753007742198086,"lng":37.598944846871085,"cluster":2005733474},{"name":"Coffee Bean","address":"Большая Никитская ул.","lat":55.7565750005601,"lng":37.60578502798247,"cluster":2005733474},{"name":"Буфет Московской государственной консерватории","address":"Большая Никитская ул.","lat":55.75633008773385,"lng":37.60505933399903,"cluster":2005733474},{"name":"Фермата","address":"Большая Никитская ул.","lat":55.75670973404469,"lng":37.60456724061185,"cluster":2005733474},{"name":"Белая Русь","address":"Большая Никитская ул.","lat":55.75654481771696,"lng":37.605762623499245,"cluster":2005733474},{"name":"Простые вещи","address":"Большая Никитская ул.","lat":55.75683561977872,"lng":37.60510081200749,"cluster":2005733474},{"name":"Крошка-картошка","address":"Большая Никитская ул.","lat":55.756621697725286,"lng":37.60539986369575,"cluster":2005733474},{"name":"Перекресток-Экспресс","address":"Тверская ул.","lat":55.7607805690292,"lng":37.61008912410855,"cluster":2005733474},{"name":"Связной","address":"Тверская ул.","lat":55.76065178027312,"lng":37.61043819053957,"cluster":2005733474},{"name":"LavkaLavka","address":"ул. Петровка","lat":55.76539796881495,"lng":37.61509921299129,"cluster":2005733474},{"name":"Джельсомино Cafe","address":"ул. Петровка","lat":55.765627095407716,"lng":37.61587397306085,"cluster":2005733474},{"name":"Азбука вкуса","address":"ул. Петровка","lat":55.76503103990684,"lng":37.61595368385315,"cluster":2005733474},{"name":"Medoks Bar","address":"ул. Петровка","lat":55.76544769994767,"lng":37.6162171140564,"cluster":2005733474},{"name":"Nike","address":"ул. Арбат","lat":55.750750468346965,"lng":37.59624481201172,"cluster":2005733474},{"name":"Double B Coffee & Tea","address":"ул. Арбат","lat":55.75124778468825,"lng":37.596863303568206,"cluster":2005733474},{"name":"Москальян","address":"ул. Арбат","lat":55.75163504372443,"lng":37.597376704216,"cluster":2005733474},{"name":"Месопотамия","address":"ул. Арбат","lat":55.751788246063924,"lng":37.59849680198095,"cluster":2005733474},{"name":"Шоколадница","address":"ул. Арбат","lat":55.75182247283436,"lng":37.59865277563658,"cluster":2005733474},{"name":"Кофе Хауз","address":"ул. Арбат","lat":55.751922334697994,"lng":37.59941284002664,"cluster":2005733474}]},{"line":{"id":1624820151,"k":-0.07205660962221953,"b":41.6443204448684},"points":[{"name":"Mitzva Bar","address":"Пятницкая ул.","lat":55.745576218659764,"lng":37.627408219175706,"cluster":1624820151},{"name":"RaiSky","address":"Пятницкая ул.","lat":55.743753920770054,"lng":37.62727014551857,"cluster":1624820151},{"name":"Prime Star","address":"Пятницкая ул.","lat":55.74386841745273,"lng":37.627897618145205,"cluster":1624820151},{"name":"Бар-буфет «Николай»","address":"Пятницкая ул.","lat":55.73513173318623,"lng":37.62782184495941,"cluster":1624820151},{"name":"Crown Thai Spa","address":"Пятницкая ул.","lat":55.7444019923946,"lng":37.627271964767345,"cluster":1624820151},{"name":"Дом Мусье Лё Кальяна","address":"Пятницкая ул.","lat":55.74460317215389,"lng":37.627272605895996,"cluster":1624820151},{"name":"Панч и Джуди","address":"Пятницкая ул.","lat":55.74464242613535,"lng":37.627200186252594,"cluster":1624820151},{"name":"Хачапурия","address":"Пятницкая ул.","lat":55.74456257393906,"lng":37.62769962509452,"cluster":1624820151},{"name":"Арт-квартал","address":"Пятницкая ул.","lat":55.74520208258643,"lng":37.62759124532107,"cluster":1624820151},{"name":"Корчма Тарас Бульба","address":"Пятницкая ул.","lat":55.742881997218454,"lng":37.628120183944695,"cluster":1624820151},{"name":"Чугунный мост","address":"Пятницкая ул.","lat":55.74439180388266,"lng":37.62746572494506,"cluster":1624820151},{"name":"Молли Гвиннз Паб","address":"Пятницкая ул.","lat":55.741069,"lng":37.628294,"cluster":1624820151},{"name":"Илларион","address":"Пятницкая ул.","lat":55.74179188049138,"lng":37.62773931026459,"cluster":1624820151},{"name":"Villa della Pasta","address":"Пятницкая ул.","lat":55.74091812596313,"lng":37.62825398162123,"cluster":1624820151}]},{"line":{"id":1556995360,"k":-0.4684496487719108,"b":63.71918663057959},"points":[{"name":"Crabs Are Coming","address":"Большая Никитская ул.","lat":55.75709602223282,"lng":37.59978532791138,"cluster":1556995360},{"name":"Zotman Pizza Pie","address":"Большая Никитская ул.","lat":55.75740729489823,"lng":37.59939596630912,"cluster":1556995360},{"name":"Drink Your Seoul","address":"Большая Никитская ул.","lat":55.75707571391953,"lng":37.59993501567077,"cluster":1556995360},{"name":"Мир Виски","address":"Тверской бул.","lat":55.75895654253145,"lng":37.59908450540139,"cluster":1556995360},{"name":"Республика","address":"1-я Тверская-Ямская ул.","lat":55.77221009983815,"lng":37.59295105934143,"cluster":1556995360},{"name":"Prime Star","address":"1-я Тверская-Ямская ул.","lat":55.77175331052428,"lng":37.593037917479116,"cluster":1556995360},{"name":"Чайхона № 1","address":"1-я Тверская-Ямская ул.","lat":55.771731659408616,"lng":37.5930497877959,"cluster":1556995360},{"name":"Mi Piace","address":"1-я Тверская-Ямская ул.","lat":55.77135918323875,"lng":37.59296715259552,"cluster":1556995360},{"name":"Якитория","address":"1-я Тверская-Ямская ул.","lat":55.771570405404404,"lng":37.59267210960388,"cluster":1556995360}]},{"line":{"id":517052730,"k":0.7803312721887282,"b":-5.898560969436657},"points":[{"name":"Ватрушка","address":"Большая Никитская ул.","lat":55.75559893003884,"lng":37.60879770797973,"cluster":517052730},{"name":"Бифштекс / Beefsteak Rest","address":"Большая Никитская ул.","lat":55.755335918305285,"lng":37.60934837680194,"cluster":517052730},{"name":"Иль де Ботэ","address":"Тверская ул.","lat":55.75942301545629,"lng":37.61183980282929,"cluster":517052730},{"name":"Falconeri","address":"Тверская ул.","lat":55.75934604779812,"lng":37.612113231995316,"cluster":517052730},{"name":"Reserved","address":"Тверская ул.","lat":55.75900716577869,"lng":37.61147311135488,"cluster":517052730},{"name":"Yves Rocher","address":"Тверская ул.","lat":55.75897420087456,"lng":37.61211032292667,"cluster":517052730},{"name":"МосИгра","address":"Тверская ул.","lat":55.75889517623164,"lng":37.61228922590227,"cluster":517052730},{"name":"ТоДаСё","address":"Тверская ул.","lat":55.75871394310949,"lng":37.61120080947876,"cluster":517052730},{"name":"Китайские новости","address":"Тверская ул.","lat":55.75834376797023,"lng":37.61237375584407,"cluster":517052730},{"name":"Шоколадница","address":"Тверская ул.","lat":55.75901636631147,"lng":37.61209585313568,"cluster":517052730},{"name":"Мумий Тролль Music Bar","address":"Тверская ул.","lat":55.758375875637725,"lng":37.61187672615051,"cluster":517052730},{"name":"Lush","address":"Тверская ул.","lat":55.75884756869165,"lng":37.612342228113405,"cluster":517052730},{"name":"Галерея Тверская","address":"Тверская ул.","lat":55.7589795654957,"lng":37.61077165603638,"cluster":517052730},{"name":"Fred Perry","address":"ул. Петровка","lat":55.765043,"lng":37.616563,"cluster":517052730},{"name":"Динамо-Центр","address":"ул. Петровка","lat":55.76635474241559,"lng":37.61768635289828,"cluster":517052730},{"name":"Бобо","address":"ул. Петровка","lat":55.76540047867366,"lng":37.61670806222487,"cluster":517052730},{"name":"Мандариновый гусь","address":"ул. Петровка","lat":55.76467085988132,"lng":37.61674770292779,"cluster":517052730}]},{"line":{"id":728739494,"k":1.1185817614054552,"b":-24.77142013454204},"points":[{"name":"Тверской бульвар","address":"Тверской бул.","lat":55.76117088115096,"lng":37.60199546813965,"cluster":728739494},{"name":"Obedbufet","address":"ул. Новый Арбат","lat":55.752231833079186,"lng":37.592250533253434,"cluster":728739494},{"name":"Кафе Пушкинъ","address":"Тверской бул.","lat":55.76364275472687,"lng":37.60498344898224,"cluster":728739494},{"name":"Турандот","address":"Тверской бул.","lat":55.763229728083516,"lng":37.604509281665045,"cluster":728739494},{"name":"Баскин Роббинс","address":"ул. Новый Арбат","lat":55.7520546816837,"lng":37.590880393981934,"cluster":728739494},{"name":"НаВоке","address":"ул. Новый Арбат","lat":55.7526918876935,"lng":37.59449038182471,"cluster":728739494},{"name":"Палаццо Дукале","address":"Тверской бул.","lat":55.758499139609725,"lng":37.59846220416456,"cluster":728739494},{"name":"Недальний восток","address":"Тверской бул.","lat":55.76056389867292,"lng":37.60031017296142,"cluster":728739494},{"name":"МХАТ им. Горького","address":"Тверской бул.","lat":55.761618787816325,"lng":37.6032292842865,"cluster":728739494},{"name":"Московский драматический театр им. А. С. Пушкина","address":"Тверской бул.","lat":55.76218290769816,"lng":37.60163735982282,"cluster":728739494},{"name":"Кулинарная лавка братьев Караваевых","address":"Тверской бул.","lat":55.761340339401755,"lng":37.602696274834855,"cluster":728739494},{"name":"Фотопроект","address":"Тверской бул.","lat":55.76135802248798,"lng":37.60302303566775,"cluster":728739494},{"name":"Галерея «Турандот»","address":"Тверской бул.","lat":55.76301369885271,"lng":37.60371240933883,"cluster":728739494},{"name":"Бублик","address":"Тверской бул.","lat":55.76231758148162,"lng":37.603619390213,"cluster":728739494},{"name":"Фаренгейт","address":"Тверской бул.","lat":55.76263168984662,"lng":37.60392665863037,"cluster":728739494},{"name":"Casta Diva","address":"Тверской бул.","lat":55.763129237307446,"lng":37.60425366038726,"cluster":728739494},{"name":"Армения","address":"Тверской бул.","lat":55.76426412659443,"lng":37.60542116971498,"cluster":728739494},{"name":"Кондитерская «Кафе ПушкинЪ»","address":"Тверской бул.","lat":55.76352093778395,"lng":37.60438718645304,"cluster":728739494},{"name":"Artwin","address":"Тверской бул.","lat":55.76277426863421,"lng":37.603682264652655,"cluster":728739494},{"name":"ТДЦ «Галерея Актёр»","address":"Тверская ул.","lat":55.76461908652751,"lng":37.60630041360855,"cluster":728739494},{"name":"Мегафон","address":"ул. Арбат","lat":55.748981369295684,"lng":37.589910453573424,"cluster":728739494},{"name":"Eric The Red / Эрик Рыжий","address":"ул. Арбат","lat":55.74870975930807,"lng":37.58851092398199,"cluster":728739494},{"name":"Tutti Frutti Frozen Yogurt","address":"ул. Арбат","lat":55.74845732467218,"lng":37.58806741688221,"cluster":728739494},{"name":"Shake Shack","address":"ул. Арбат","lat":55.748628,"lng":37.588246,"cluster":728739494},{"name":"Босфор / Bosphorus","address":"ул. Арбат","lat":55.747974294089595,"lng":37.588019962990366,"cluster":728739494},{"name":"Hard Rock Cafe Moscow","address":"ул. Арбат","lat":55.748129833797876,"lng":37.58650302886963,"cluster":728739494},{"name":"Мемориальная квартира А.С.Пушкина на Арбате","address":"ул. Арбат","lat":55.74747162833753,"lng":37.58577346801758,"cluster":728739494},{"name":"Шоколадница","address":"ул. Арбат","lat":55.7479549020967,"lng":37.58677169194199,"cluster":728739494},{"name":"Hookah 50m2","address":"ул. Арбат","lat":55.74753175180075,"lng":37.58671992366844,"cluster":728739494},{"name":"Лакки Лучано","address":"ул. Новый Арбат","lat":55.75227761507665,"lng":37.591161047463736,"cluster":728739494},{"name":"Zю","address":"ул. Новый Арбат","lat":55.75209090920951,"lng":37.59101986885071,"cluster":728739494},{"name":"Вареничная №1","address":"ул. Новый Арбат","lat":55.7523047696426,"lng":37.59102394525496,"cluster":728739494},{"name":"Тарантино","address":"ул. Новый Арбат","lat":55.752534357106335,"lng":37.592025469550194,"cluster":728739494},{"name":"Якитория","address":"ул. Новый Арбат","lat":55.7529196046749,"lng":37.593978345394135,"cluster":728739494}]},{"line":{"id":2035070981,"k":-1.1542937553199457,"b":101.97105746150498},"points":[{"name":"Оранж 3","address":"Тверской бул.","lat":55.763129237307446,"lng":37.60411152781974,"cluster":2035070981},{"name":"Детский городок","address":"Тверской бул.","lat":55.7631040655246,"lng":37.6033950343309,"cluster":2035070981},{"name":"Цветочная галерея «Турандот»","address":"Тверской бул.","lat":55.76300593781361,"lng":37.60439872741699,"cluster":2035070981},{"name":"Новопушкинский сквер","address":"Тверской бул.","lat":55.764452356923954,"lng":37.60385418683199,"cluster":2035070981},{"name":"Фонтан «Новопушкинский»","address":"Тверской бул.","lat":55.76447115891899,"lng":37.60381347589119,"cluster":2035070981},{"name":"Джаз-кофейня «Эссе»","address":"Пятницкая ул.","lat":55.74129054841095,"lng":37.628774416211755,"cluster":2035070981},{"name":"Марукамэ","address":"Пятницкая ул.","lat":55.74084525223642,"lng":37.62965822953541,"cluster":2035070981},{"name":"Центральная площадь Замоскворечья","address":"Пятницкая ул.","lat":55.742351410366034,"lng":37.62897759072222,"cluster":2035070981},{"name":"Plastilin","address":"Пятницкая ул.","lat":55.74259210765398,"lng":37.628120183944695,"cluster":2035070981},{"name":"Paul","address":"Пятницкая ул.","lat":55.741739831456634,"lng":37.628612324924354,"cluster":2035070981},{"name":"Prime Star","address":"Пятницкая ул.","lat":55.740854879547136,"lng":37.62908313868143,"cluster":2035070981},{"name":"Baga Bar","address":"Пятницкая ул.","lat":55.74189757181189,"lng":37.630051374435425,"cluster":2035070981},{"name":"Простые вещи","address":"Пятницкая ул.","lat":55.74104000114612,"lng":37.62964617367378,"cluster":2035070981},{"name":"Bar BQ Cafe","address":"Пятницкая ул.","lat":55.74107619173188,"lng":37.628817558288574,"cluster":2035070981},{"name":"Грабли","address":"Пятницкая ул.","lat":55.74148756728584,"lng":37.62852385759016,"cluster":2035070981},{"name":"Parka","address":"Пятницкая ул.","lat":55.74189699252446,"lng":37.628412482841576,"cluster":2035070981},{"name":"Малевич Бар","address":"Пятницкая ул.","lat":55.7409553527832,"lng":37.62898254394531,"cluster":2035070981},{"name":"Killfish Discount Bar","address":"Пятницкая ул.","lat":55.7409004861167,"lng":37.62923910583612,"cluster":2035070981},{"name":"Государственный центральный музей современной истории России","address":"Тверская ул.","lat":55.76612050735404,"lng":37.601555585861206,"cluster":2035070981},{"name":"Natura Siberica","address":"Тверская ул.","lat":55.76843064813924,"lng":37.59845231205615,"cluster":2035070981},{"name":"Самсон Фарма","address":"Тверская ул.","lat":55.7692346539489,"lng":37.597290183829315,"cluster":2035070981},{"name":"Бар-буфет «Николай»","address":"Тверская ул.","lat":55.76917113400707,"lng":37.59716716823248,"cluster":2035070981},{"name":"Бутербродная «У Славика»","address":"Тверская ул.","lat":55.76915266052257,"lng":37.597285106241124,"cluster":2035070981},{"name":"Пян-се","address":"Тверская ул.","lat":55.76895720495956,"lng":37.59703874588013,"cluster":2035070981},{"name":"Omega Service Swiss Watches","address":"1-я Тверская-Ямская ул.","lat":55.77140035782623,"lng":37.593755964120334,"cluster":2035070981},{"name":"Pilsner Urquell","address":"1-я Тверская-Ямская ул.","lat":55.77015217747801,"lng":37.59517192840576,"cluster":2035070981},{"name":"Koffee Times","address":"1-я Тверская-Ямская ул.","lat":55.77122047917809,"lng":37.59416236806235,"cluster":2035070981},{"name":"ПЭКО | PEKO LOUNGE BAR","address":"1-я Тверская-Ямская ул.","lat":55.76996476552024,"lng":37.59522840998264,"cluster":2035070981},{"name":"ТоДаСё","address":"1-я Тверская-Ямская ул.","lat":55.770775817290215,"lng":37.59477509446644,"cluster":2035070981},{"name":"La Galerie Dessange","address":"1-я Тверская-Ямская ул.","lat":55.771381,"lng":37.593702,"cluster":2035070981},{"name":"Евросеть","address":"1-я Тверская-Ямская ул.","lat":55.771294621496885,"lng":37.594003443373396,"cluster":2035070981},{"name":"IL Патио","address":"1-я Тверская-Ямская ул.","lat":55.77008428229371,"lng":37.59615898132324,"cluster":2035070981},{"name":"KFC","address":"1-я Тверская-Ямская ул.","lat":55.76996508823966,"lng":37.59654521942139,"cluster":2035070981},{"name":"Луук","address":"Тверская ул.","lat":55.76893454897519,"lng":37.59774354901841,"cluster":2035070981},{"name":"Шоколадница","address":"Тверская ул.","lat":55.76849851891078,"lng":37.59787559509277,"cluster":2035070981},{"name":"re:Store","address":"Тверская ул.","lat":55.768214465584514,"lng":37.598923858815695,"cluster":2035070981},{"name":"Манито","address":"Тверская ул.","lat":55.76804284518957,"lng":37.59766638278961,"cluster":2035070981}]},{"line":{"id":550668305,"k":2.089762320933593,"b":-78.87745924654328},"points":[{"name":"Свободное пространство «Циферблат»","address":"ул. Покровка","lat":55.758997676047066,"lng":37.64440655708313,"cluster":550668305},{"name":"I Like Wine","address":"ул. Покровка","lat":55.759335543454114,"lng":37.645828967475566,"cluster":550668305},{"name":"Укулелешная","address":"ул. Покровка","lat":55.75935613746688,"lng":37.64504975531557,"cluster":550668305},{"name":"Кулинарная лавка братьев Караваевых","address":"ул. Покровка","lat":55.759073136587205,"lng":37.645286321640015,"cluster":550668305},{"name":"Double B Coffee & Tea","address":"ул. Покровка","lat":55.75932541623644,"lng":37.645605606753065,"cluster":550668305},{"name":"Кофемания","address":"ул. Покровка","lat":55.75916670745419,"lng":37.64606952667236,"cluster":550668305},{"name":"Долма / Dolma","address":"ул. Покровка","lat":55.758508513013346,"lng":37.645994072555794,"cluster":550668305},{"name":"Get Coffee","address":"ул. Покровка","lat":55.7596255032947,"lng":37.64511466026306,"cluster":550668305},{"name":"Extra Virgin","address":"ул. Покровка","lat":55.759371958892174,"lng":37.64542579650879,"cluster":550668305},{"name":"Imagine Café","address":"ул. Покровка","lat":55.75838198191131,"lng":37.6462997597809,"cluster":550668305},{"name":"Чайная высота","address":"ул. Покровка","lat":55.75994907255687,"lng":37.64836853072871,"cluster":550668305},{"name":"Wok Street","address":"ул. Покровка","lat":55.75868171983516,"lng":37.64576246637123,"cluster":550668305},{"name":"Coffee Bean","address":"ул. Покровка","lat":55.75964965029466,"lng":37.64718532562256,"cluster":550668305},{"name":"Cuba Libre","address":"ул. Покровка","lat":55.75972510957326,"lng":37.645522356033325,"cluster":550668305},{"name":"ВьетКафе","address":"ул. Покровка","lat":55.76008746997169,"lng":37.64621009360716,"cluster":550668305},{"name":"Шоколадница","address":"ул. Покровка","lat":55.759764348340404,"lng":37.647625207901,"cluster":550668305},{"name":"Doodles","address":"ул. Покровка","lat":55.75976058301951,"lng":37.64493542634387,"cluster":550668305},{"name":"Music Room","address":"ул. Покровка","lat":55.75918523343862,"lng":37.645467908450115,"cluster":550668305},{"name":"Булка","address":"ул. Покровка","lat":55.75946249837662,"lng":37.64625427218958,"cluster":550668305},{"name":"Pilsner Urquell","address":"ул. Покровка","lat":55.759341774924906,"lng":37.644803524017334,"cluster":550668305},{"name":"Кальян Кафе","address":"ул. Покровка","lat":55.75974888364893,"lng":37.64681815446946,"cluster":550668305},{"name":"Free Bar","address":"ул. Покровка","lat":55.75969190750865,"lng":37.64735698699951,"cluster":550668305},{"name":"Caribe","address":"ул. Покровка","lat":55.75907399340051,"lng":37.64648156441346,"cluster":550668305},{"name":"19 Bar & Atmosphere","address":"ул. Покровка","lat":55.759951101866214,"lng":37.64667903981343,"cluster":550668305},{"name":"Mi Piace","address":"ул. Покровка","lat":55.759076155005786,"lng":37.64570474624634,"cluster":550668305},{"name":"Don Giulio Salumeria (Prodotti Italiani)","address":"ул. Покровка","lat":55.76001621678359,"lng":37.64869655121494,"cluster":550668305},{"name":"Beer & Brut","address":"ул. Покровка","lat":55.76016880717783,"lng":37.649052143096924,"cluster":550668305},{"name":"Городской букет","address":"ул. Покровка","lat":55.76060344483447,"lng":37.65039324760437,"cluster":550668305},{"name":"Lavazza Espression","address":"ул. Покровка","lat":55.75975548711163,"lng":37.64797827461553,"cluster":550668305},{"name":"Wine Cult Club Fantinel","address":"ул. Покровка","lat":55.76010341269274,"lng":37.64844369696129,"cluster":550668305},{"name":"Точка любви","address":"ул. Покровка","lat":55.75962511237282,"lng":37.64732631654404,"cluster":550668305},{"name":"Умные книги","address":"ул. Покровка","lat":55.759934300821875,"lng":37.64818705843092,"cluster":550668305},{"name":"Frendy's Diner","address":"ул. Покровка","lat":55.76016729801084,"lng":37.649502754211426,"cluster":550668305},{"name":"Сосна и Липа & Кооператив Чёрный","address":"ул. Покровка","lat":55.76082701315036,"lng":37.650079752866,"cluster":550668305},{"name":"Омулевая бочка","address":"ул. Покровка","lat":55.76117836181639,"lng":37.65067694023077,"cluster":550668305},{"name":"Sierra Maestra","address":"ул. Покровка","lat":55.762015345249516,"lng":37.65398899827399,"cluster":550668305},{"name":"35 мм","address":"ул. Покровка","lat":55.76386910894412,"lng":37.65434145927429,"cluster":550668305},{"name":"Canali","address":"ул. Покровка","lat":55.763070397755335,"lng":37.653810917516594,"cluster":550668305},{"name":"Чайхона № 1","address":"ул. Покровка","lat":55.76365180892078,"lng":37.65585422515869,"cluster":550668305},{"name":"Советские времена","address":"ул. Покровка","lat":55.76378416142541,"lng":37.65540956956924,"cluster":550668305},{"name":"Бутылка, кружка и котёл","address":"ул. Покровка","lat":55.76346760101245,"lng":37.65476948848811,"cluster":550668305},{"name":"Шиномонтаж","address":"ул. Покровка","lat":55.76284124332692,"lng":37.65413743193478,"cluster":550668305},{"name":"Театр на Покровке","address":"ул. Покровка","lat":55.7636850155859,"lng":37.655101439217894,"cluster":550668305},{"name":"Смайл","address":"ул. Покровка","lat":55.76349151339219,"lng":37.65483574629047,"cluster":550668305}]},{"line":{"id":1264213713,"k":0.6203212393957833,"b":3.0254227297746823},"points":[{"name":"Colin's","address":"Тверская ул.","lat":55.75783307127934,"lng":37.61348552489175,"cluster":1264213713},{"name":"ESPA","address":"Тверская ул.","lat":55.75759,"lng":37.613508,"cluster":1264213713},{"name":"Caviarterra","address":"Тверская ул.","lat":55.757429,"lng":37.612788,"cluster":1264213713},{"name":"Кредит Европа Банк","address":"Тверская ул.","lat":55.757278,"lng":37.612856,"cluster":1264213713},{"name":"Московский драматический театр им. М. Н. Ермоловой","address":"Тверская ул.","lat":55.75786876893518,"lng":37.612547278404236,"cluster":1264213713},{"name":"Leto Lounge","address":"ул. Петровка","lat":55.765507,"lng":37.617813,"cluster":1264213713},{"name":"Haggis Pub & Kitchen","address":"ул. Петровка","lat":55.76419808614955,"lng":37.61720529855666,"cluster":1264213713},{"name":"Щербет","address":"ул. Петровка","lat":55.7639475780994,"lng":37.61710166931152,"cluster":1264213713}]},{"line":{"id":524241174,"k":-0.7116617734504703,"b":77.28133953633403},"points":[{"name":"Хачапурия","address":"Большая Никитская ул.","lat":55.757415989521625,"lng":37.60090112686157,"cluster":524241174},{"name":"Геликон-опера","address":"Большая Никитская ул.","lat":55.757194002657016,"lng":37.60063960524214,"cluster":524241174},{"name":"Chez Maman","address":"Большая Никитская ул.","lat":55.75735390336564,"lng":37.600737224962465,"cluster":524241174},{"name":"Nord 55","address":"Тверской бул.","lat":55.759213688610146,"lng":37.59971001341638,"cluster":524241174},{"name":"Московский драматический театр «АпАРТе»","address":"Тверской бул.","lat":55.758758291642266,"lng":37.600313721217155,"cluster":524241174},{"name":"Шоколадница","address":"Большая Никитская ул.","lat":55.75725495256757,"lng":37.601113035451206,"cluster":524241174},{"name":"Московский музей современного искусства","address":"Тверской бул.","lat":55.759540988677,"lng":37.599120140075684,"cluster":524241174},{"name":"Дом-музей М.Н. Ермоловой","address":"Тверской бул.","lat":55.75990145414511,"lng":37.59966052995957,"cluster":524241174},{"name":"Codered Store","address":"1-я Тверская-Ямская ул.","lat":55.77275323060136,"lng":37.59027623319375,"cluster":524241174},{"name":"Art of SPA","address":"1-я Тверская-Ямская ул.","lat":55.774795467956274,"lng":37.588363192865735,"cluster":524241174},{"name":"Hugo Boss","address":"1-я Тверская-Ямская ул.","lat":55.77386963550729,"lng":37.58920669555664,"cluster":524241174},{"name":"Дом Фарфора","address":"1-я Тверская-Ямская ул.","lat":55.774270837834706,"lng":37.588787801124035,"cluster":524241174}]},{"line":{"id":6750210,"k":-1.403071738200842,"b":115.84704956231728},"points":[{"name":"Книжный магазин «Москва»","address":"Тверская ул.","lat":55.76236609233609,"lng":37.60914087295532,"cluster":6750210},{"name":"Свободное пространство «Циферблат»","address":"Тверская ул.","lat":55.76317903904574,"lng":37.60762539481412,"cluster":6750210},{"name":"Nespresso","address":"Тверская ул.","lat":55.75958297471268,"lng":37.61166829083036,"cluster":6750210},{"name":"Take and Wake","address":"Тверская ул.","lat":55.76437034511428,"lng":37.60605760584511,"cluster":6750210},{"name":"Coffee to Go","address":"Тверской бул.","lat":55.76447027209073,"lng":37.605324159910765,"cluster":6750210},{"name":"Шоколадница","address":"Тверская ул.","lat":55.76432418209478,"lng":37.60603243560191,"cluster":6750210},{"name":"7 красок","address":"Тверская ул.","lat":55.763959920666544,"lng":37.60722227202202,"cluster":6750210},{"name":"United Colors of Benetton","address":"Тверская ул.","lat":55.7653074,"lng":37.6035762,"cluster":6750210},{"name":"Porky's Grill & Bar","address":"Тверская ул.","lat":55.764090968145034,"lng":37.60705419547708,"cluster":6750210},{"name":"Кофе Хауз","address":"Тверская ул.","lat":55.76370694564023,"lng":37.60646174962827,"cluster":6750210},{"name":"Елисеевский","address":"Тверская ул.","lat":55.76403811923615,"lng":37.60696291923523,"cluster":6750210},{"name":"Beverly Hills Diner","address":"Тверская ул.","lat":55.763884199178555,"lng":37.60724186897277,"cluster":6750210},{"name":"ЭТАЖ","address":"Тверская ул.","lat":55.76415280437421,"lng":37.606544494628906,"cluster":6750210},{"name":"Night Flight","address":"Тверская ул.","lat":55.763682367747755,"lng":37.60672833406273,"cluster":6750210},{"name":"Кофе Хауз","address":"Тверская ул.","lat":55.76549745203032,"lng":37.60365933049131,"cluster":6750210},{"name":"Massimo Dutti","address":"Тверская ул.","lat":55.76322062975326,"lng":37.60760942422886,"cluster":6750210},{"name":"Духless Bar","address":"Тверская ул.","lat":55.76409724203917,"lng":37.60738491323465,"cluster":6750210},{"name":"Хлеб и вино","address":"Тверская ул.","lat":55.76410523995152,"lng":37.60754755483056,"cluster":6750210},{"name":"Pizza Express","address":"Тверская ул.","lat":55.76323154120353,"lng":37.60688245296478,"cluster":6750210},{"name":"Zю","address":"Тверская ул.","lat":55.76312666219801,"lng":37.60712385177612,"cluster":6750210},{"name":"Связной","address":"Тверская ул.","lat":55.763272442041206,"lng":37.60718397561481,"cluster":6750210},{"name":"БирХаус","address":"Тверская ул.","lat":55.764158585485355,"lng":37.60796828836055,"cluster":6750210},{"name":"Rendez-Vous","address":"Тверская ул.","lat":55.76276225456331,"lng":37.607754919646425,"cluster":6750210},{"name":"Prime Star","address":"Тверская ул.","lat":55.7625372666245,"lng":37.608159534562255,"cluster":6750210},{"name":"Meat Stop","address":"Тверская ул.","lat":55.76335560309285,"lng":37.60707050578377,"cluster":6750210},{"name":"Thomas Sabo","address":"Тверская ул.","lat":55.76037625163226,"lng":37.610684017102884,"cluster":6750210},{"name":"Саввинское подворье","address":"Тверская ул.","lat":55.76037759689283,"lng":37.611761394088376,"cluster":6750210},{"name":"Мегафон","address":"Тверская ул.","lat":55.76104995080438,"lng":37.61009224907279,"cluster":6750210},{"name":"Pandora","address":"Тверская ул.","lat":55.76095993948873,"lng":37.61011287273519,"cluster":6750210},{"name":"Valtera","address":"Тверская ул.","lat":55.76047061608472,"lng":37.611067164717184,"cluster":6750210},{"name":"Intimissimi","address":"Тверская ул.","lat":55.76053281630701,"lng":37.61063917132844,"cluster":6750210},{"name":"Henderson","address":"Тверская ул.","lat":55.760411549485255,"lng":37.61103458151366,"cluster":6750210},{"name":"36,6","address":"Тверская ул.","lat":55.76021619081066,"lng":37.61059608571697,"cluster":6750210},{"name":"Гин-но Таки","address":"Тверская ул.","lat":55.759897156182426,"lng":37.61171579360962,"cluster":6750210},{"name":"Hour Passion","address":"Тверская ул.","lat":55.7600789006751,"lng":37.61093267874228,"cluster":6750210},{"name":"Fabi","address":"Тверская ул.","lat":55.76001185350018,"lng":37.61147975921631,"cluster":6750210},{"name":"Calzedonia","address":"Тверская ул.","lat":55.7599603207734,"lng":37.61103168500687,"cluster":6750210},{"name":"Эвалар","address":"Тверская ул.","lat":55.75810421215282,"lng":37.613797187805176,"cluster":6750210},{"name":"Bosco","address":"Тверская ул.","lat":55.757675583695,"lng":37.614558935165405,"cluster":6750210},{"name":"Louvre Jewellery","address":"Тверская ул.","lat":55.76272519433929,"lng":37.60779363243782,"cluster":6750210},{"name":"Cstore","address":"Тверская ул.","lat":55.76118717104395,"lng":37.60999698489033,"cluster":6750210},{"name":"TJ Collection","address":"Тверская ул.","lat":55.76327645125982,"lng":37.60738139889924,"cluster":6750210},{"name":"Евросеть","address":"Тверская ул.","lat":55.76349510559101,"lng":37.60713731583164,"cluster":6750210},{"name":"Электротеатр «Станиславский»","address":"Тверская ул.","lat":55.7667181630169,"lng":37.60146344897907,"cluster":6750210},{"name":"ДжонДжоли","address":"Тверская ул.","lat":55.76681461201156,"lng":37.60293960571289,"cluster":6750210},{"name":"Scenario","address":"Тверская ул.","lat":55.76700198750627,"lng":37.60194308495011,"cluster":6750210},{"name":"Кофе Хауз","address":"Тверская ул.","lat":55.7657736012191,"lng":37.60315263024421,"cluster":6750210},{"name":"Интеллектуальный клуб «60 секунд»","address":"Тверская ул.","lat":55.766738149461595,"lng":37.603729406176235,"cluster":6750210},{"name":"Кофемания","address":"Тверская ул.","lat":55.76753284643021,"lng":37.60038614273071,"cluster":6750210},{"name":"Известия Hall","address":"Тверская ул.","lat":55.76626505901381,"lng":37.604506464165006,"cluster":6750210},{"name":"Консул","address":"Тверская ул.","lat":55.768060659771,"lng":37.59938362048401,"cluster":6750210},{"name":"Voice Tverskaya","address":"Тверская ул.","lat":55.76810319963082,"lng":37.59990334510803,"cluster":6750210},{"name":"Starbucks","address":"Тверская ул.","lat":55.768085093308265,"lng":37.59978532791138,"cluster":6750210},{"name":"Чайхона № 1","address":"Тверская ул.","lat":55.767920691592884,"lng":37.59958590229838,"cluster":6750210},{"name":"Prime Star","address":"Тверская ул.","lat":55.76615359161217,"lng":37.602747457129574,"cluster":6750210},{"name":"Lookin Rooms","address":"Тверская ул.","lat":55.76639637004656,"lng":37.604175469129565,"cluster":6750210},{"name":"Бахетле","address":"Тверская ул.","lat":55.76758716614217,"lng":37.60075092315674,"cluster":6750210},{"name":"Грабли","address":"Тверская ул.","lat":55.7661337428988,"lng":37.60358870371143,"cluster":6750210},{"name":"Pivbar","address":"1-я Тверская-Ямская ул.","lat":55.76979740596837,"lng":37.59730868406347,"cluster":6750210},{"name":"Хинкальная","address":"Тверская ул.","lat":55.76972915539174,"lng":37.5974643050904,"cluster":6750210},{"name":"SAMSUNG Сервис Плаза","address":"Тверская ул.","lat":55.76799715927785,"lng":37.599915947469974,"cluster":6750210},{"name":"Sunday Up Market","address":"Тверская ул.","lat":55.76864664423721,"lng":37.59859093878367,"cluster":6750210}]},{"line":{"id":158199555,"k":0.09712850140638371,"b":32.17008848003493},"points":[{"name":"Dandy Cafe by Artem Korolev","address":"ул. Новый Арбат","lat":55.752875830673624,"lng":37.585344314575195,"cluster":158199555},{"name":"Белый","address":"ул. Арбат","lat":55.74737469424013,"lng":37.585280046135495,"cluster":158199555},{"name":"McDonald's","address":"ул. Арбат","lat":55.747447473797486,"lng":37.584378719329834,"cluster":158199555},{"name":"Центр Павла Слободкина","address":"ул. Арбат","lat":55.747614245234,"lng":37.58502107722349,"cluster":158199555},{"name":"McCafé","address":"ул. Арбат","lat":55.74742331924248,"lng":37.5842821598053,"cluster":158199555},{"name":"Старый лекарь","address":"ул. Арбат","lat":55.7473439783035,"lng":37.5848625620407,"cluster":158199555},{"name":"Holy Berry","address":"ул. Новый Арбат","lat":55.75252230971014,"lng":37.585524436869484,"cluster":158199555},{"name":"Чайхона № 1","address":"ул. Новый Арбат","lat":55.75238805086986,"lng":37.58599902333614,"cluster":158199555},{"name":"Royal Arbat","address":"ул. Новый Арбат","lat":55.75219320111217,"lng":37.58423614175472,"cluster":158199555},{"name":"Хинкальная","address":"ул. Новый Арбат","lat":55.752449,"lng":37.585444,"cluster":158199555},{"name":"КРЦ Арбат","address":"ул. Новый Арбат","lat":55.752379533374025,"lng":37.58471823813433,"cluster":158199555},{"name":"Экспресс Кафе","address":"ул. Новый Арбат","lat":55.752004526813764,"lng":37.5853305271192,"cluster":158199555},{"name":"Luce","address":"1-я Тверская-Ямская ул.","lat":55.7742558445822,"lng":37.58723258972168,"cluster":158199555},{"name":"Печатный центр «Фан»","address":"1-я Тверская-Ямская ул.","lat":55.77498046783991,"lng":37.58755256529584,"cluster":158199555}]},{"line":{"id":1846406218,"k":1.1334876458572185,"b":-25.59815688138858},"points":[{"name":"Московский дом книги","address":"ул. Новый Арбат","lat":55.753132436188,"lng":37.595397233963006,"cluster":1846406218},{"name":"Театр им. Вахтангова","address":"ул. Арбат","lat":55.749650285622,"lng":37.59153476114245,"cluster":1846406218},{"name":"Московский академический театр им. В. В. Маяковского","address":"Большая Никитская ул.","lat":55.75682434983268,"lng":37.60167360305786,"cluster":1846406218},{"name":"Хлеб и вино","address":"Большая Никитская ул.","lat":55.757266998291016,"lng":37.60246658325195,"cluster":1846406218},{"name":"Компот","address":"ул. Арбат","lat":55.75023950780044,"lng":37.594521121288246,"cluster":1846406218},{"name":"WaffleStory","address":"ул. Новый Арбат","lat":55.752849627806185,"lng":37.59786075820666,"cluster":1846406218},{"name":"Жигули","address":"ул. Новый Арбат","lat":55.7525014854839,"lng":37.59663105010986,"cluster":1846406218},{"name":"Генацвале","address":"ул. Новый Арбат","lat":55.75177693620143,"lng":37.59645938873291,"cluster":1846406218},{"name":"Шоу Рум Ellevill","address":"ул. Новый Арбат","lat":55.75236022823388,"lng":37.597638156376696,"cluster":1846406218},{"name":"Новоарбатская аптека","address":"ул. Новый Арбат","lat":55.75283299615167,"lng":37.5976754129114,"cluster":1846406218},{"name":"7 красок","address":"ул. Новый Арбат","lat":55.75338448922459,"lng":37.597918424638436,"cluster":1846406218},{"name":"Кулинария","address":"Большая Никитская ул.","lat":55.757070102031484,"lng":37.602108200107075,"cluster":1846406218},{"name":"Рецептор","address":"Большая Никитская ул.","lat":55.7570401786162,"lng":37.60298788547516,"cluster":1846406218},{"name":"Grishko","address":"Тверская ул.","lat":55.763965429125086,"lng":37.608986231804046,"cluster":1846406218},{"name":"La Marée","address":"ул. Петровка","lat":55.76791041086851,"lng":37.613911577856214,"cluster":1846406218},{"name":"Поехали","address":"ул. Петровка","lat":55.76798853086378,"lng":37.61443742721989,"cluster":1846406218},{"name":"Ти-Бон","address":"ул. Петровка","lat":55.768167293442886,"lng":37.613765674137,"cluster":1846406218},{"name":"Корчма Тарас Бульба","address":"ул. Петровка","lat":55.768085254605396,"lng":37.614084247135345,"cluster":1846406218},{"name":"Де Марко","address":"ул. Петровка","lat":55.768112763576504,"lng":37.615035774639466,"cluster":1846406218},{"name":"Семирамис","address":"ул. Петровка","lat":55.767907462190045,"lng":37.613409668057784,"cluster":1846406218},{"name":"Руккола","address":"ул. Арбат","lat":55.750862406002106,"lng":37.59594365903567,"cluster":1846406218},{"name":"Фонтан «Принцесса Турандот»","address":"ул. Арбат","lat":55.74972895821296,"lng":37.592248425800804,"cluster":1846406218},{"name":"Cinnabon","address":"ул. Арбат","lat":55.75008589241659,"lng":37.593405663889534,"cluster":1846406218},{"name":"Dunkin' Donuts","address":"ул. Арбат","lat":55.75031270178156,"lng":37.594855427742004,"cluster":1846406218},{"name":"Вареничная № 1","address":"ул. Арбат","lat":55.749887006824075,"lng":37.593626976013184,"cluster":1846406218},{"name":"Дом великана","address":"ул. Арбат","lat":55.75048793637107,"lng":37.59464780477983,"cluster":1846406218},{"name":"Музей пыток (истории телесных наказаний)","address":"ул. Арбат","lat":55.75036885548101,"lng":37.59449729624598,"cluster":1846406218},{"name":"Hesburger","address":"ул. Арбат","lat":55.75007,"lng":37.593414,"cluster":1846406218},{"name":"Контактный зоопарк","address":"ул. Арбат","lat":55.75053639236542,"lng":37.594871416979956,"cluster":1846406218},{"name":"Дом вверх дном","address":"ул. Арбат","lat":55.750498758957924,"lng":37.594916195646995,"cluster":1846406218},{"name":"Центральный дом актёра им. А. А. Яблочкиной","address":"ул. Арбат","lat":55.74922009416718,"lng":37.5914643880551,"cluster":1846406218},{"name":"Shamrock Pub","address":"ул. Новый Арбат","lat":55.75220845450884,"lng":37.59488012601868,"cluster":1846406218},{"name":"Еврокафе","address":"ул. Новый Арбат","lat":55.75260110995778,"lng":37.597553730010986,"cluster":1846406218},{"name":"Merry Perry","address":"ул. Новый Арбат","lat":55.75243648374411,"lng":37.59670125301442,"cluster":1846406218},{"name":"ТД «Новоарбатский»","address":"ул. Новый Арбат","lat":55.75238408974047,"lng":37.59545884768606,"cluster":1846406218},{"name":"Goa Paradise","address":"ул. Новый Арбат","lat":55.75276327183207,"lng":37.59723560670772,"cluster":1846406218},{"name":"DoctorHead","address":"ул. Новый Арбат","lat":55.752614536411905,"lng":37.59645392310151,"cluster":1846406218},{"name":"Ёлки-Палки","address":"ул. Новый Арбат","lat":55.75224371177606,"lng":37.59646182084123,"cluster":1846406218}]},{"line":{"id":1019384604,"k":0.7827000890567734,"b":-6.005185194761925},"points":[{"name":"Клаустрофобия","address":"ул. Маросейка","lat":55.75875518290859,"lng":37.636057757212875,"cluster":1019384604},{"name":"Jeffrey's Coffee","address":"ул. Маросейка","lat":55.75812911987305,"lng":37.63628005981445,"cluster":1019384604},{"name":"Union Jack","address":"ул. Маросейка","lat":55.758302362914876,"lng":37.636321576984365,"cluster":1019384604},{"name":"Bubble Mania","address":"ул. Маросейка","lat":55.75778691927001,"lng":37.6366410309323,"cluster":1019384604},{"name":"BB & Burgers","address":"ул. Маросейка","lat":55.75771401944336,"lng":37.63629072773141,"cluster":1019384604},{"name":"Мир кино","address":"ул. Маросейка","lat":55.757588046318006,"lng":37.636290192604065,"cluster":1019384604},{"name":"Дамас","address":"ул. Маросейка","lat":55.757588046318006,"lng":37.63620972633362,"cluster":1019384604},{"name":"f-Lounge","address":"ул. Маросейка","lat":55.757706014939075,"lng":37.63649580465952,"cluster":1019384604},{"name":"Брусника","address":"ул. Маросейка","lat":55.757776670231756,"lng":37.63648120171016,"cluster":1019384604},{"name":"Хлеб и вино","address":"ул. Маросейка","lat":55.75790930658549,"lng":37.63715297943192,"cluster":1019384604},{"name":"Жан-Жак","address":"ул. Маросейка","lat":55.757953170579505,"lng":37.63729453006085,"cluster":1019384604},{"name":"Hardy Pub","address":"ул. Маросейка","lat":55.757899057933564,"lng":37.63720456869825,"cluster":1019384604},{"name":"Чебуреки","address":"ул. Маросейка","lat":55.75797831637207,"lng":37.635904016592,"cluster":1019384604},{"name":"PUR PUR","address":"Мясницкая ул.","lat":55.768100181910995,"lng":37.644996643066406,"cluster":1019384604},{"name":"Шоколадница","address":"Мясницкая ул.","lat":55.76824503220001,"lng":37.64448165893555,"cluster":1019384604},{"name":"ToDANCE Bar","address":"Мясницкая ул.","lat":55.7685888468473,"lng":37.64484318448851,"cluster":1019384604},{"name":"ТоДаСё","address":"Мясницкая ул.","lat":55.76831934452981,"lng":37.64435500398622,"cluster":1019384604},{"name":"7 Красок","address":"Мясницкая ул.","lat":55.76927222229053,"lng":37.64580960912744,"cluster":1019384604},{"name":"Björn","address":"Пятницкая ул.","lat":55.74553619841145,"lng":37.62699365615845,"cluster":1019384604},{"name":"Coffee Bean","address":"Пятницкая ул.","lat":55.74532677930695,"lng":37.62689434549836,"cluster":1019384604},{"name":"Ароматный мир","address":"Пятницкая ул.","lat":55.74549694532914,"lng":37.62650012969971,"cluster":1019384604},{"name":"Friends Bar","address":"Пятницкая ул.","lat":55.74545831276295,"lng":37.627084061664895,"cluster":1019384604},{"name":"Нияма","address":"Пятницкая ул.","lat":55.7455396901444,"lng":37.626905410654444,"cluster":1019384604},{"name":"Теремок","address":"Пятницкая ул.","lat":55.74542447799654,"lng":37.62651085853577,"cluster":1019384604},{"name":"Штолле / Stolle","address":"Пятницкая ул.","lat":55.7454818479793,"lng":37.62688636779785,"cluster":1019384604}]},{"line":{"id":521081105,"k":-2.7450358791659633,"b":190.69063326170536},"points":[{"name":"Библио-Глобус","address":"Мясницкая ул.","lat":55.7596255032947,"lng":37.62924671173096,"cluster":521081105},{"name":"Santo Spirito","address":"ул. Петровка","lat":55.76411658805126,"lng":37.61671543121338,"cluster":521081105},{"name":"Nespresso","address":"ул. Петровка","lat":55.76380271184326,"lng":37.61696755886078,"cluster":521081105},{"name":"Петровский пассаж","address":"ул. Петровка","lat":55.762462673458316,"lng":37.619054317474365,"cluster":521081105},{"name":"Бардак","address":"ул. Маросейка","lat":55.75739787823576,"lng":37.63436436653137,"cluster":521081105},{"name":"Учебная и деловая книга","address":"Мясницкая ул.","lat":55.75977606333869,"lng":37.629090088212585,"cluster":521081105},{"name":"Пироги","address":"ул. Маросейка","lat":55.75794725016566,"lng":37.63347387313843,"cluster":521081105},{"name":"Ваби саби","address":"ул. Маросейка","lat":55.75750459821942,"lng":37.63265575682608,"cluster":521081105},{"name":"FotoFaktura","address":"ул. Маросейка","lat":55.75754162823915,"lng":37.63259112521687,"cluster":521081105},{"name":"Иль де Ботэ / Ile de Beaute","address":"ул. Маросейка","lat":55.75765202791317,"lng":37.633516877386256,"cluster":521081105},{"name":"Джаганнат","address":"ул. Маросейка","lat":55.75745042925516,"lng":37.63430714530376,"cluster":521081105},{"name":"Волконский","address":"ул. Маросейка","lat":55.75737372984149,"lng":37.63395667076111,"cluster":521081105},{"name":"Randy Cats Private Dance Studio","address":"ул. Маросейка","lat":55.758248912658566,"lng":37.635017395148324,"cluster":521081105},{"name":"Boroda Bar","address":"ул. Маросейка","lat":55.75767027816857,"lng":37.63415459913216,"cluster":521081105},{"name":"Prime Star","address":"ул. Маросейка","lat":55.75766288484852,"lng":37.634654324587686,"cluster":521081105},{"name":"Натахтари / ნატახტარი","address":"ул. Маросейка","lat":55.75754880536109,"lng":37.635512351989746,"cluster":521081105},{"name":"Две палочки","address":"ул. Маросейка","lat":55.75742806370753,"lng":37.63447165489197,"cluster":521081105},{"name":"Кофе Хауз","address":"ул. Маросейка","lat":55.75752465706028,"lng":37.634793519973755,"cluster":521081105},{"name":"Шоколадница","address":"ул. Маросейка","lat":55.75716243075394,"lng":37.63534069061279,"cluster":521081105},{"name":"McDonald's","address":"ул. Маросейка","lat":55.757748028272225,"lng":37.63438582420349,"cluster":521081105},{"name":"Теремок","address":"ул. Маросейка","lat":55.75765034104082,"lng":37.63447862338416,"cluster":521081105},{"name":"Шоколадница","address":"ул. Маросейка","lat":55.75740391533196,"lng":37.63143539428711,"cluster":521081105},{"name":"BM Cafe","address":"ул. Маросейка","lat":55.75738330240019,"lng":37.63221667668736,"cluster":521081105},{"name":"SMOG","address":"ул. Маросейка","lat":55.75692278564199,"lng":37.63773503931105,"cluster":521081105},{"name":"Кафе «Республика»","address":"1-я Тверская-Ямская ул.","lat":55.772493,"lng":37.593066,"cluster":521081105},{"name":"Джаганнат","address":"1-я Тверская-Ямская ул.","lat":55.77383568845174,"lng":37.58949962968193,"cluster":521081105},{"name":"Бахетле","address":"1-я Тверская-Ямская ул.","lat":55.77448668119178,"lng":37.58756847309852,"cluster":521081105},{"name":"Four Winds Square","address":"1-я Тверская-Ямская ул.","lat":55.77444161624139,"lng":37.587675500956976,"cluster":521081105},{"name":"Debauve & Gallais","address":"1-я Тверская-Ямская ул.","lat":55.77456964321933,"lng":37.58819702493896,"cluster":521081105},{"name":"Гамбринус","address":"1-я Тверская-Ямская ул.","lat":55.772729192849546,"lng":37.59176910873578,"cluster":521081105}]},{"line":{"id":1237550792,"k":1.4246401476066224,"b":-41.80689681502562},"points":[{"name":"Babetta","address":"Мясницкая ул.","lat":55.76306238254112,"lng":37.6350937992131,"cluster":1237550792},{"name":"Презервативная","address":"Мясницкая ул.","lat":55.760863017791124,"lng":37.63245731592178,"cluster":1237550792},{"name":"ModMac","address":"Мясницкая ул.","lat":55.76032853570554,"lng":37.631290395347825,"cluster":1237550792},{"name":"Мойчай","address":"Мясницкая ул.","lat":55.76300880620171,"lng":37.6357276136741,"cluster":1237550792},{"name":"Антикафе «CheckPoint»","address":"Мясницкая ул.","lat":55.76368802567544,"lng":37.63471841812134,"cluster":1237550792},{"name":"Особняк Салтыкова-Черткова","address":"Мясницкая ул.","lat":55.760371824422215,"lng":37.63114871797293,"cluster":1237550792},{"name":"9 залов","address":"Мясницкая ул.","lat":55.7630119740417,"lng":37.634546756744385,"cluster":1237550792},{"name":"KFC","address":"Мясницкая ул.","lat":55.76160718596004,"lng":37.63310228426724,"cluster":1237550792},{"name":"Starbucks","address":"Мясницкая ул.","lat":55.7614499929112,"lng":37.63278895219701,"cluster":1237550792},{"name":"Borgato","address":"Мясницкая ул.","lat":55.760825,"lng":37.631817,"cluster":1237550792},{"name":"Калимера","address":"Мясницкая ул.","lat":55.760918599114696,"lng":37.63208444304443,"cluster":1237550792},{"name":"Шоколадница","address":"Мясницкая ул.","lat":55.76049541684405,"lng":37.63120205715887,"cluster":1237550792},{"name":"Jeffrey's Coffee","address":"Мясницкая ул.","lat":55.761441428707926,"lng":37.63283393708753,"cluster":1237550792},{"name":"Fishermoon","address":"Мясницкая ул.","lat":55.76556838348765,"lng":37.63837542218772,"cluster":1237550792},{"name":"Чай-Кофе","address":"Мясницкая ул.","lat":55.76381588098249,"lng":37.636119306979104,"cluster":1237550792},{"name":"Петрович","address":"Мясницкая ул.","lat":55.76281621416081,"lng":37.63650587694935,"cluster":1237550792},{"name":"Республика","address":"Мясницкая ул.","lat":55.76269808894159,"lng":37.635254859924316,"cluster":1237550792},{"name":"ДжонДжоли","address":"Мясницкая ул.","lat":55.76318819580003,"lng":37.635757339222174,"cluster":1237550792},{"name":"БеЗЗабоТ","address":"Мясницкая ул.","lat":55.76292506191545,"lng":37.63597115165988,"cluster":1237550792},{"name":"Prime Star","address":"Мясницкая ул.","lat":55.76310449894682,"lng":37.63547207937212,"cluster":1237550792},{"name":"Krispy Kreme","address":"Мясницкая ул.","lat":55.76262894392634,"lng":37.634657538505316,"cluster":1237550792},{"name":"Сoffeeshop Сompany","address":"Мясницкая ул.","lat":55.76304301529409,"lng":37.63538626889642,"cluster":1237550792},{"name":"Две палочки","address":"Мясницкая ул.","lat":55.76314175271978,"lng":37.63566792011261,"cluster":1237550792},{"name":"Brasserie Lambic","address":"Мясницкая ул.","lat":55.766399283547734,"lng":37.63999512940936,"cluster":1237550792},{"name":"Jim'N'Jack","address":"Мясницкая ул.","lat":55.76602846211275,"lng":37.64020085334778,"cluster":1237550792},{"name":"Babylon","address":"Мясницкая ул.","lat":55.765321054926716,"lng":37.639345420702014,"cluster":1237550792},{"name":"Отдохни","address":"Мясницкая ул.","lat":55.766710799500125,"lng":37.64050872869271,"cluster":1237550792},{"name":"DIDU","address":"Мясницкая ул.","lat":55.76306026383284,"lng":37.63546943664551,"cluster":1237550792},{"name":"Dream Bar","address":"Мясницкая ул.","lat":55.76344054384816,"lng":37.63542652130127,"cluster":1237550792},{"name":"Vino - Veritas","address":"Мясницкая ул.","lat":55.76377953376522,"lng":37.63415981042964,"cluster":1237550792},{"name":"Aloha Bar","address":"Мясницкая ул.","lat":55.76615719114982,"lng":37.63987757607126,"cluster":1237550792},{"name":"Щербет","address":"Мясницкая ул.","lat":55.763638767132505,"lng":37.63589208348413,"cluster":1237550792},{"name":"Шоколадница","address":"Мясницкая ул.","lat":55.76351403423715,"lng":37.635734845517135,"cluster":1237550792},{"name":"Эвалар","address":"Мясницкая ул.","lat":55.76328677305923,"lng":37.635581114023054,"cluster":1237550792},{"name":"Дома Бар","address":"Мясницкая ул.","lat":55.762949,"lng":37.636212,"cluster":1237550792},{"name":"Flash Computers","address":"Мясницкая ул.","lat":55.76332887470449,"lng":37.63424634933472,"cluster":1237550792},{"name":"Райхона","address":"Мясницкая ул.","lat":55.762815188163714,"lng":37.63493284520202,"cluster":1237550792},{"name":"White Home","address":"Мясницкая ул.","lat":55.76292560959046,"lng":37.63617508710869,"cluster":1237550792},{"name":"Mollie's Irish Pub","address":"Мясницкая ул.","lat":55.762483800546924,"lng":37.63440191745758,"cluster":1237550792},{"name":"Горздрав","address":"Мясницкая ул.","lat":55.76241876462795,"lng":37.6348380955917,"cluster":1237550792},{"name":"Городское кафе «Паста»","address":"Мясницкая ул.","lat":55.76237833514942,"lng":37.634819490251665,"cluster":1237550792},{"name":"Школа танцев ManGo Ритм","address":"Мясницкая ул.","lat":55.762824850536184,"lng":37.63470768928527,"cluster":1237550792},{"name":"Кофе Хауз","address":"Мясницкая ул.","lat":55.76315080703003,"lng":37.63520121574402,"cluster":1237550792},{"name":"Трактир «Погребок»","address":"Мясницкая ул.","lat":55.76200638607656,"lng":37.634800329438775,"cluster":1237550792},{"name":"Dolce Cafe","address":"Мясницкая ул.","lat":55.76186006167325,"lng":37.633595332747525,"cluster":1237550792},{"name":"Sanctions Bar","address":"Мясницкая ул.","lat":55.76183159021329,"lng":37.633580838742866,"cluster":1237550792},{"name":"Погребок","address":"Мясницкая ул.","lat":55.76193576801144,"lng":37.63467603605072,"cluster":1237550792},{"name":"Fortis Service","address":"Мясницкая ул.","lat":55.76164078333924,"lng":37.6343286524405,"cluster":1237550792},{"name":"МУ-МУ","address":"Мясницкая ул.","lat":55.76067588397293,"lng":37.63214349746704,"cluster":1237550792},{"name":"Биф&Строганофф","address":"Мясницкая ул.","lat":55.761010913237946,"lng":37.63245463371277,"cluster":1237550792},{"name":"Гледиз","address":"Мясницкая ул.","lat":55.76004545708678,"lng":37.63120878358478,"cluster":1237550792},{"name":"Главпивтрест","address":"Мясницкая ул.","lat":55.767706169322494,"lng":37.643030163568774,"cluster":1237550792},{"name":"Дед Пихто","address":"Мясницкая ул.","lat":55.76691299706058,"lng":37.64072074952553,"cluster":1237550792},{"name":"Кружка","address":"Мясницкая ул.","lat":55.76557728639351,"lng":37.639031410217285,"cluster":1237550792},{"name":"McDonald's","address":"Мясницкая ул.","lat":55.76534188829344,"lng":37.63836085796356,"cluster":1237550792},{"name":"Wengls Showroom","address":"Мясницкая ул.","lat":55.76210145831544,"lng":37.63561645990751,"cluster":1237550792}]},{"line":{"id":963110412,"k":0.8888596425617086,"b":-11.968283020442957},"points":[{"name":"Paul","address":"ул. Арбат","lat":55.74723612093416,"lng":37.58315563201904,"cluster":963110412},{"name":"Prime Star","address":"ул. Арбат","lat":55.74771711918332,"lng":37.58267494456382,"cluster":963110412},{"name":"Чабан хаус","address":"ул. Новый Арбат","lat":55.75228397654201,"lng":37.58706806694439,"cluster":963110412},{"name":"The 21 Food Market","address":"ул. Новый Арбат","lat":55.75217862740097,"lng":37.58732614655282,"cluster":963110412},{"name":"Бараshка","address":"ул. Новый Арбат","lat":55.75203052998112,"lng":37.58643865585327,"cluster":963110412},{"name":"Сентябрь","address":"ул. Новый Арбат","lat":55.75279875536438,"lng":37.58673344052414,"cluster":963110412},{"name":"Who is Who","address":"ул. Новый Арбат","lat":55.7521089871898,"lng":37.58702546495322,"cluster":963110412},{"name":"Teacupcake","address":"ул. Новый Арбат","lat":55.75319338076474,"lng":37.589413818782646,"cluster":963110412},{"name":"Республика*","address":"ул. Новый Арбат","lat":55.752355223572614,"lng":37.58949342075825,"cluster":963110412},{"name":"Киноцентр «Октябрь»","address":"ул. Новый Арбат","lat":55.75304488861399,"lng":37.58764028549194,"cluster":963110412},{"name":"BB & Burgers","address":"ул. Новый Арбат","lat":55.752524448085715,"lng":37.589960943648734,"cluster":963110412},{"name":"ТД «Весна» / Vesna Mall","address":"ул. Новый Арбат","lat":55.75189769534975,"lng":37.58830547332764,"cluster":963110412},{"name":"Noor Electro","address":"Тверская ул.","lat":55.76694739584225,"lng":37.60071873664856,"cluster":963110412},{"name":"Наше кафе","address":"Тверская ул.","lat":55.76702491990171,"lng":37.600447315285564,"cluster":963110412}]}]